[
  {
    "id": 1,
    "name": "Green Garden",
    "city": "New York",
    "state": "NY",
    "diet": ["Vegan", "Gluten-Free"],
    "address": "123 Green St, New York, NY 10001",
    "phone": "(555) 123-4567",
    "website": "https://greengarden.com",
    "openingHours": "10:00 AM - 9:00 PM",
    "rating": 4.5
  },
  {
    "id": 2,
    "name": "Healthy Bites",
    "city": "New York",
    "state": "NY",
    "diet": ["Vegetarian"],
    "address": "456 Health Ave, New York, NY 10002",
    "phone": "(555) 234-5678",
    "website": "https://healthybites.com",
    "openingHours": "9:00 AM - 8:00 PM",
    "rating": 4.2
  },
  {
    "id": 3,
    "name": "Fresh Feast",
    "city": "San Francisco",
    "state": "CA",
    "diet": ["Vegan", "Organic"],
    "address": "789 Fresh Rd, San Francisco, CA 94103",
    "phone": "(555) 345-6789",
    "website": "https://freshfeast.com",
    "openingHours": "11:00 AM - 10:00 PM",
    "rating": 4.7
  },
  {
    "id": 4,
    "name": "Pure Plates",
    "city": "San Francisco",
    "state": "CA",
    "diet": ["Gluten-Free", "Organic"],
    "address": "321 Pure Blvd, San Francisco, CA 94104",
    "phone": "(555) 456-7890",
    "website": "https://pureplates.com",
    "openingHours": "10:00 AM - 9:00 PM",
    "rating": 4.3
  },
  {
    "id": 5,
    "name": "Veggie Delight",
    "city": "Los Angeles",
    "state": "CA",
    "diet": ["Vegetarian", "Vegan"],
    "address": "654 Veggie Ln, Los Angeles, CA 90001",
    "phone": "(555) 567-8901",
    "website": "https://veggiedelight.com",
    "openingHours": "9:00 AM - 8:00 PM",
    "rating": 4.6
  },
  {
    "id": 6,
    "name": "Clean Cuisine",
    "city": "Los Angeles",
    "state": "CA",
    "diet": ["Organic"],
    "address": "987 Clean Dr, Los Angeles, CA 90002",
    "phone": "(555) 678-9012",
    "website": "https://cleancuisine.com",
    "openingHours": "8:00 AM - 7:00 PM",
    "rating": 4.4
  },
  {
    "id": 7,
    "name": "NutriBowl",
    "city": "Chicago",
    "state": "IL",
    "diet": ["Vegan", "Gluten-Free"],
    "address": "111 Nutri St, Chicago, IL 60601",
    "phone": "(555) 789-0123",
    "website": "https://nutribowl.com",
    "openingHours": "11:00 AM - 10:00 PM",
    "rating": 4.6
  },
  {
    "id": 8,
    "name": "Green Eats",
    "city": "Chicago",
    "state": "IL",
    "diet": ["Vegetarian"],
    "address": "222 Green Ave, Chicago, IL 60602",
    "phone": "(555) 890-1234",
    "website": "https://greeneats.com",
    "openingHours": "9:00 AM - 9:00 PM",
    "rating": 4.3
  },
  {
    "id": 9,
    "name": "Healthy Haven",
    "city": "Houston",
    "state": "TX",
    "diet": ["Vegan", "Gluten-Free", "Organic"],
    "address": "333 Healthy Rd, Houston, TX 77001",
    "phone": "(555) 901-2345",
    "website": "https://healthyhaven.com",
    "openingHours": "10:00 AM - 8:00 PM",
    "rating": 4.7
  },
  {
    "id": 10,
    "name": "Organic Bliss",
    "city": "Houston",
    "state": "TX",
    "diet": ["Organic"],
    "address": "444 Organic Ln, Houston, TX 77002",
    "phone": "(555) 012-3456",
    "website": "https://organicbliss.com",
    "openingHours": "8:00 AM - 6:00 PM",
    "rating": 4.5
  },
  {
    "id": 11,
    "name": "Vegan Vibes",
    "city": "Austin",
    "state": "TX",
    "diet": ["Vegan"],
    "address": "555 Vegan St, Austin, TX 73301",
    "phone": "(555) 123-6789",
    "website": "https://veganvibes.com",
    "openingHours": "11:00 AM - 10:00 PM",
    "rating": 4.8
  },
  {
    "id": 12,
    "name": "Plant Power",
    "city": "Austin",
    "state": "TX",
    "diet": ["Vegetarian", "Gluten-Free"],
    "address": "666 Plant Blvd, Austin, TX 73302",
    "phone": "(555) 234-7890",
    "website": "https://plantpower.com",
    "openingHours": "10:00 AM - 9:00 PM",
    "rating": 4.6
  },
  {
    "id": 13,
    "name": "Eco Eats",
    "city": "Seattle",
    "state": "WA",
    "diet": ["Vegan", "Organic"],
    "address": "777 Eco Rd, Seattle, WA 98101",
    "phone": "(555) 345-8901",
    "website": "https://ecoeats.com",
    "openingHours": "9:00 AM - 8:00 PM",
    "rating": 4.7
  },
  {
    "id": 14,
    "name": "Healthy Harvest",
    "city": "Seattle",
    "state": "WA",
    "diet": ["Vegetarian", "Gluten-Free"],
    "address": "888 Harvest Blvd, Seattle, WA 98102",
    "phone": "(555) 456-9012",
    "website": "https://healthyharvest.com",
    "openingHours": "8:00 AM - 7:00 PM",
    "rating": 4.5
  },
  {
    "id": 15,
    "name": "Organic Oasis",
    "city": "Portland",
    "state": "OR",
    "diet": ["Organic", "Gluten-Free"],
    "address": "999 Oasis St, Portland, OR 97201",
    "phone": "(555) 567-0123",
    "website": "https://organicoasis.com",
    "openingHours": "9:00 AM - 9:00 PM",
    "rating": 4.6
  },
  {
    "id": 16,
    "name": "Vegan Valley",
    "city": "Portland",
    "state": "OR",
    "diet": ["Vegan"],
    "address": "1111 Valley Rd, Portland, OR 97202",
    "phone": "(555) 678-1234",
    "website": "https://veganvalley.com",
    "openingHours": "10:00 AM - 8:00 PM",
    "rating": 4.8
  },
  {
    "id": 17,
    "name": "Herbivore Haven",
    "city": "Miami",
    "state": "FL",
    "diet": ["Vegetarian", "Vegan"],
    "address": "2222 Herbivore Blvd, Miami, FL 33101",
    "phone": "(555) 789-2345",
    "website": "https://herbivorehaven.com",
    "openingHours": "11:00 AM - 10:00 PM",
    "rating": 4.7
  },
  {
    "id": 18,
    "name": "Nature's Plate",
    "city": "Miami",
    "state": "FL",
    "diet": ["Organic"],
    "address": "3333 Nature Ln, Miami, FL 33102",
    "phone": "(555) 890-3456",
    "website": "https://naturesplate.com",
    "openingHours": "9:00 AM - 8:00 PM",
    "rating": 4.5
  }
]